,USAF,WBAN,STATION NAME,CTRY,STATE,ICAO,LAT,LON,ELEV(M),BEGIN,END,airport
17078,720169,116,WASHINGTON REGIONAL AIRPORT,US,MO,KFYG,38.583,-91.0,149.1,20120209,20181020,True
17122,720272,94282,SKAGIT REGIONAL AIRPORT,US,WA,KBVS,48.467,-122.417,42.7,20060101,20181019,True
17146,720285,3734,MIDDLE PENINSULA REGIONAL AIRPORT,US,VA,KFYJ,37.521,-76.765,7.3,20060101,20181019,True
17170,720299,53966,MID-WAY REGIONAL AIRPORT,US,TX,KJWY,32.455999999999996,-96.913,228.3,20060101,20181020,True
17203,720317,3735,STAFFORD REGIONAL AIRPORT,US,VA,KRMN,38.398,-77.456,64.6,20060101,20181019,True
17246,720347,63877,GREENE COUNTY REGIONAL AIRPORT,US,GA,K3J7,33.598,-83.139,206.4,20060101,20181019,True
17255,720354,63901,ALTUS/QUARTZ MOUNTAIN REGIONAL AIRPORT,US,OK,KAXS,34.699,-99.338,436.8,20060101,20181020,True
17256,720355,3732,GREATER CUMBERLAND REGIONAL AIRPORT,US,MD,KCBE,39.6,-78.767,236.2,20060428,20181019,True
17258,720356,13999,CLINTON REGIONAL AIRPORT,US,OK,KCLK,35.538000000000004,-98.93299999999999,492.6,20060101,20181020,True
17261,720358,53999,EL RENO REGIONAL AIRPORT,US,OK,KRQO,35.473,-98.006,431.9,20060101,20181020,True
17365,720458,476,BIG SANDY REGIONAL AIRPORT,US,KY,KSJS,37.751,-82.637,372.5,20120531,20181019,True
17375,720476,455,HANNIBAL REGIONAL AIRPORT,US,MO,KHAE,39.725,-91.444,234.7,20121115,20181019,True
17496,720599,192,CHESTER CATAWBA REGIONAL AIRPORT,US,SC,KDCM,34.783,-81.2,200.3,20090105,20181019,True
17500,720602,194,BARNWELL REGIONAL AIRPORT,US,SC,KBNL,33.25,-81.383,75.3,20090105,20181019,True
17504,720604,196,WILLIAMSBURG REGIONAL AIRPORT,US,SC,KCKI,33.717,-79.85,20.1,20090105,20181019,True
17513,720609,201,LOWCOUNTRY REGIONAL AIRPORT,US,SC,KRBW,32.917,-80.633,31.1,20130101,20181019,True
17521,720614,205,LINCOLN REGIONAL AIRPORT KARL HARDER FIELD,US,CA,KLHM,38.909,-121.351,37.2,20090510,20181019,True
17537,720627,214,STIGLER REGIONAL AIRPORT,US,OK,KGZL,35.283,-95.1,183.2,20090312,20181019,True
17547,720633,219,HARTSVILLE REGIONAL AIRPORT,US,SC,KHVS,34.4,-80.117,111.3,20090403,20181019,True
17572,720649,231,HALIFAX NORTHAMPTON REGIONAL AIRPORT,US,NC,KIXA,36.33,-77.635,44.2,20090722,20181019,True
17601,720674,249,WEST GEORGIA REGIONAL AIRPORT O V GRAY FIELD,US,GA,KCTJ,33.633,-85.15,354.2,20110101,20181019,True
17650,720738,267,THOMASVILLE REGIONAL AIRPORT,US,GA,KTVI,30.901999999999997,-83.881,80.2,20100701,20181019,True
17706,720866,292,MERCER COUNTY REGIONAL AIRPORT,US,ND,KHZE,47.29,-101.581,553.2,20110101,20181019,True
17775,720944,324,BELLEFONTAINE REGIONAL AIRPORT,US,OH,KEDJ,40.367,-83.81700000000001,342.3,20110512,20181019,True
17781,720948,328,JIMMY CARTER REGIONAL AIRPORT,US,GA,KACJ,32.11,-84.189,142.7,20110711,20181019,True
17785,720951,330,EAST GEORGIA REGIONAL AIRPORT,US,GA,KSBO,32.609,-82.37,100.3,20110704,20181019,True
17801,720962,337,HEART OF GEORGIA REGIONAL AIRPORT,US,GA,KEZM,32.214,-83.12799999999999,93.3,20111102,20181019,True
17810,720967,457,FALSE RIVER REGIONAL AIRPORT,US,LA,KHZR,30.718000000000004,-91.479,12.2,20111221,20181019,True
17871,721031,348,TULLAHOMA REGIONAL AIRPORT WILLIAM NORTHERN FIELD,US,TN,KTHA,35.38,-86.24600000000001,330.1,20120408,20181019,True
17892,721048,471,PRESIDIO LELY INTERNATIONAL AIRPORT,US,TX,KPRS,29.634,-104.361,896.1,20130731,20181019,True
17904,722010,12836,KEY WEST INTERNATIONAL AIRPORT,US,FL,KEYW,24.557,-81.755,0.3,19730101,20181019,True
17919,722020,12839,MIAMI INTERNATIONAL AIRPORT,US,FL,KMIA,25.788,-80.317,8.8,19730101,20181019,True
17933,722030,12844,PALM BEACH INTERNATIONAL AIRPORT,US,FL,KPBI,26.685,-80.09899999999999,5.8,19430206,20181019,True
17960,722046,12898,SPACE COAST REGIONAL AIRPORT,US,FL,KTIX,28.517,-80.8,10.7,20060101,20181019,True
17966,722050,12815,ORLANDO INTERNATIONAL AIRPORT,US,FL,KMCO,28.434,-81.325,27.4,19520507,20181019,True
17970,722052,53933,ALVA REGIONAL AIRPORT,US,OK,KAVK,36.773,-98.67,449.3,20060101,20181020,True
17976,722055,12861,OCALA INTERNATIONAL AIRPORT-JIM TAYLOR FIELD,US,FL,KOCF,29.166999999999998,-82.23299999999999,26.5,20060101,20181019,True
17984,722060,13889,JACKSONVILLE  INTERNATIONAL AIRPORT,US,FL,KJAX,30.495,-81.694,7.9,19480101,20181019,True
18017,722080,13880,CHARLESTON AFB/INTERNATIONAL AIRPORT,US,SC,KCHS,32.899,-80.041,12.2,19450101,20181019,True
18031,722091,53940,CLAREMORE REGIONAL AIRPORT,US,OK,KGCM,36.294000000000004,-95.479,221.0,20060101,20181019,True
18065,722110,12842,TAMPA INTERNATIONAL AIRPORT,US,FL,KTPA,27.962,-82.54,5.8,19400801,20181019,True
18081,722119,12883,LAKELAND LINDER REGIONAL AIRPORT,US,FL,KLAL,28.0,-82.05,43.3,20060101,20181019,True
18105,722132,63801,CONCORD REGIONAL AIRPORT,US,NC,KJQF,35.39,-80.707,214.9,20060101,20181019,True
18109,722134,63822,VIDALIA REGIONAL AIRPORT,US,GA,KVDI,32.193000000000005,-82.37200000000001,83.5,20060101,20181019,True
18116,722138,63852,STENNIS INTERNATIONAL AIRPORT,US,MS,KHSA,30.368000000000002,-89.455,7.0,20071030,20181019,True
18119,722140,93805,TALLAHASSEE REGIONAL AIRPORT,US,FL,KTLH,30.393,-84.353,16.8,19420501,20181019,True
18163,722166,93845,VALDOSTA REGIONAL AIRPORT,US,GA,KVLD,30.783,-83.277,60.4,19480101,20181019,True
18167,722168,4960,OLIVIA REGIONAL AIRPORT,US,MN,KOVL,44.778999999999996,-95.03299999999999,328.0,20060101,20181020,True
18171,722170,3813,MIDDLE GEORGIA REGIONAL AIRPORT,US,GA,KMCN,32.685,-83.65299999999999,104.6,19411020,20181019,True
18248,722213,12819,LEESBURG REGIONAL AIRPORT,US,FL,KLEE,28.820999999999998,-81.81,23.5,20060101,20181019,True
18261,722223,13899,PENSACOLA REGIONAL AIRPORT,US,FL,KPNS,30.478,-87.18700000000001,34.1,19900228,20181019,True
18268,722230,13894,MOBILE REGIONAL AIRPORT,US,AL,KMOB,30.688000000000002,-88.24600000000001,65.5,19730101,20181019,True
18297,722251,53958,RUSTON REGIONAL AIRPORT,US,LA,KRSN,32.514,-92.588,94.8,20060425,20181019,True
18311,722268,13839,DOTHAN REGIONAL AIRPORT,US,AL,KDHN,31.316999999999997,-85.45,114.0,20060101,20181019,True
18327,722280,13876,BIRMINGHAM INTERNATIONAL AIRPORT,US,AL,KBHM,33.566,-86.745,187.5,19420801,20181019,True
18360,722314,53915,ACADIANA REGIONAL AIRPORT,US,LA,KARA,30.038,-91.884,7.3,20060101,20181019,True
18386,722332,54953,TOMAHAWK REGIONAL AIRPORT,US,WI,KTKV,45.468999999999994,-89.806,452.9,20060101,20181019,True
18390,722334,3976,BEAUREGARD REGIONAL AIRPORT,US,LA,KDRI,30.833000000000002,-93.333,62.2,20060101,20181019,True
18403,722343,54826,SOUTH HAVEN AREA REGIONAL AIRPORT,US,MI,KLWA,42.351000000000006,-86.256,203.0,20060101,20181019,True
18413,722350,3940,JACKSON INTERNATIONAL AIRPORT,US,MS,KJAN,32.321,-90.07799999999999,100.6,19420901,20181019,True
18414,722351,12953,WHARTON REGIONAL AIRPORT,US,TX,KARM,29.266,-96.008,30.5,20060101,20181020,True
18457,722400,3937,LAKE CHARLES REGIONAL AIRPORT,US,LA,KLCH,30.125,-93.228,2.7,19420502,20181019,True
18462,722405,13976,LAFAYETTE REGIONAL AIRPORT,US,LA,KLFT,30.205,-91.988,11.6,19451001,20181019,True
18468,722410,12917,SOUTHEAST TEXAS REGIONAL AIRPORT,US,TX,KBPT,29.951,-94.021,4.9,19730101,20181019,True
18511,722480,13957,SHREVEPORT REGIONAL AIRPORT,US,LA,KSHV,32.446999999999996,-93.824,77.4,19730101,20181019,True
18516,722486,13942,MONROE REGIONAL AIRPORT,US,LA,KMLU,32.516,-92.041,24.1,19421001,20181019,True
18517,722487,13935,ESLER REGIONAL AIRPORT,US,LA,KESF,31.395,-92.291,36.0,19410701,20181019,True
18532,722510,12924,CORPUS CHRISTI  INTERNATIONAL AIRPORT,US,TX,KCRP,27.774,-97.512,13.4,19460801,20181020,True
18540,722520,12907,LAREDO INTERNATIONAL AIRPORT,US,TX,KLRD,27.533,-99.46700000000001,150.6,20081124,20181020,True
18553,722530,12921,SAN ANTONIO INTERNATIONAL AIRPORT,US,TX,KSAT,29.544,-98.484,240.5,19460814,20181020,True
18577,722550,12912,VICTORIA REGIONAL AIRPORT,US,TX,KVCT,28.861,-96.93,35.1,19411104,20181019,True
18587,722560,13959,WACO REGIONAL AIRPORT,US,TX,KACT,31.619,-97.228,152.4,19420514,20181019,True
18627,722610,22010,DEL RIO INTERNATIONAL AIRPORT,US,TX,KDRT,29.378,-100.927,304.5,19510501,20181020,True
18646,722650,23023,MIDLAND INTERNATIONAL AIRPORT,US,TX,KMAF,31.948,-102.209,872.3,19480201,20181020,True
18653,722660,13962,ABILENE REGIONAL AIRPORT,US,TX,KABI,32.411,-99.682,545.6,19460801,20181020,True
18655,722666,93943,BROWNWOOD REGIONAL AIRPORT,US,TX,KBWD,31.8,-98.95,419.7,20060101,20181019,True
18657,722670,23042,LUBBOCK INTERNATIONAL AIRPORT,US,TX,KLBB,33.666,-101.823,991.8,19450810,20181020,True
18675,722688,93034,LEA COUNTY REGIONAL AIRPORT,US,NM,KHOB,32.693000000000005,-103.213,1114.0,19421101,20181020,True
18690,722700,23044,EL PASO INTERNATIONAL AIRPORT,US,TX,KELP,31.811,-106.376,1194.2,19410401,20181019,True
18709,722740,23160,TUCSON INTERNATIONAL AIRPORT,US,AZ,KTUS,32.131,-110.955,776.9,19730101,20181019,True
18714,722747,93084,SAFFORD REGIONAL AIRPORT,US,AZ,KSAD,32.855,-109.635,968.0,20060101,20181019,True
18797,722900,23188,SAN DIEGO INTERNATIONAL AIRPORT,US,CA,KSAN,32.734,-117.18299999999999,4.6,19420101,20181019,True
18837,722950,23174,LOS ANGELES INTERNATIONAL AIRPORT,US,CA,KLAX,33.938,-118.389,29.6,19440101,20181019,True
18867,723010,3810,HICKORY REGIONAL AIRPORT,US,NC,KHKY,35.742,-81.382,358.1,20090101,20181019,True
18872,723020,13748,WILMINGTON INTERNATIONAL AIRPORT,US,NC,KILM,34.268,-77.9,10.1,20090101,20181019,True
18886,723046,13766,DARE COUNTY REGIONAL AIRPORT,US,NC,KMQI,35.917,-75.7,4.0,20060101,20181019,True
18914,723080,13737,NORFOLK INTERNATIONAL AIRPORT,US,VA,KORF,36.903,-76.192,9.1,19730101,20181019,True
18932,723098,93798,CULPEPER REGIONAL AIRPORT,US,VA,KCJR,38.527,-77.859,96.3,20060101,20181019,True
18941,723106,13744,FLORENCE REGIONAL AIRPORT,US,SC,KFLO,34.188,-79.73100000000001,44.5,19730101,20181019,True
18942,723107,371,SANTEE COOPER REGIONAL AIRPORT,US,SC,KMNI,33.586999999999996,-80.209,31.1,20090101,20181019,True
18984,723150,3812,ASHEVILLE REGIONAL AIRPORT,US,NC,KAVL,35.431999999999995,-82.538,645.3,19730101,20181020,True
18991,723170,13723,PIEDMONT TRIAD INTERNATIONAL AIRPORT,US,NC,KGSO,36.097,-79.943,271.3,19451101,20181019,True
19001,723190,93846,ANDERSON REGIONAL AIRPORT,US,SC,KAND,34.498000000000005,-82.71,231.7,20090101,20181019,True
19013,723235,13896,NORTH WEST ALABAMA REGIONAL AIRPORT,US,AL,KMSL,34.744,-87.6,164.6,19730101,20181019,True
19025,723270,13897,NASHVILLE INTERNATIONAL AIRPORT,US,TN,KBNA,36.119,-86.689,182.9,19510101,20181019,True
19029,723274,372,UPPER CUMBERLAND REGIONAL AIRPORT,US,TN,KSRB,36.056,-85.531,312.1,20120604,20181020,True
19048,723320,93862,TUPELO REGIONAL AIRPORT,US,MS,KTUP,34.262,-88.771,110.0,19910301,20181019,True
19049,723340,13893,MEMPHIS INTERNATIONAL AIRPORT,US,TN,KMEM,35.056,-89.98700000000001,77.4,19461001,20181019,True
19066,723408,13814,ARKANSAS INTERNATIONAL AIRPORT,US,AR,KBYH,35.967,-89.95,77.4,19420901,20181018,True
19077,723418,13977,TEXARKANA REGIONAL AIRPORT-WEBB FIELD,US,AR,KTXK,33.454,-94.007,110.0,19460729,20181019,True
19091,723439,53918,OZARK REGIONAL AIRPORT,US,AR,KBPK,36.369,-92.47,282.9,20060101,20181019,True
19093,723440,13964,FORT SMITH REGIONAL AIRPORT,US,AR,KFSM,35.333,-94.363,136.9,19470101,20181019,True
19117,723495,13987,JOPLIN REGIONAL AIRPORT,US,MO,KJLN,37.152,-94.495,296.3,19730101,20181019,True
19133,723536,53986,ENID WOODRING REGIONAL AIRPORT,US,OK,KWDG,36.383,-97.8,355.7,20060101,20181020,True
19150,723560,13968,TULSA INTERNATIONAL AIRPORT,US,OK,KTUL,36.199,-95.887,198.1,19470101,20181020,True
19195,723663,3012,TAOS REGIONAL AIRPORT,US,NM,KSKX,36.45,-105.667,2161.3,20060101,20181019,True
19210,723740,23194,WINSLOW-LINDBERGH REGIONAL AIRPORT,US,AZ,KINW,35.028,-110.721,1489.3,19730101,20181019,True
19227,723759,53990,MC CURTAIN COUNTY REGIONAL AIRPORT,US,OK,K4O4,33.909,-94.859,143.9,20060101,20181019,True
19241,723788,53135,LAUGHLIN/BULLHEAD INTERNATIONAL AIRPORT,US,AZ,KIFP,35.157,-114.559,211.8,20060101,20181019,True
19260,723860,23169,MCCARRAN INTERNATIONAL AIRPORT,US,NV,KLAS,36.071999999999996,-115.163,664.5,19730101,20181019,True
19264,723890,93193,FRESNO YOSEMITE INTERNATIONAL AIRPORT,US,CA,KFAT,36.78,-119.719,101.5,19411204,20181019,True
19299,723990,14711,HARRISBURG INTERNATIONAL AIRPORT,US,PA,KMDT,40.196,-76.77199999999999,95.1,20090101,20181019,True
19306,724010,13740,RICHMOND INTERNATIONAL AIRPORT,US,VA,KRIC,37.512,-77.32300000000001,50.0,19420924,20181019,True
19313,724017,3707,FARMVILLE REGIONAL AIRPORT,US,VA,KFVX,37.358000000000004,-78.438,127.1,20060101,20181018,True
19363,724070,93730,ATLANTIC CITY INTERNATIONAL AIRPORT,US,NJ,KACY,39.452,-74.567,18.3,19470101,20181019,True
19370,724080,13739,PHILADELPHIA INTERNATIONAL AIRPORT,US,PA,KPHL,39.873000000000005,-75.227,3.1,19730101,20181019,True
19399,724106,13728,DANVILLE REGIONAL AIRPORT,US,VA,KDAN,36.573,-79.335,174.0,19730101,20181019,True
19433,724200,14891,MANSFIELD LAHM REGIONAL AIRPORT,US,OH,KMFD,40.82,-82.51799999999999,393.2,20090101,20181019,True
19454,724273,3804,MID-OHIO VALLEY REGIONAL AIRPORT,US,WV,KPKB,39.34,-81.444,253.3,19900208,20181020,True
19459,724280,14821,PORT COLUMBUS INTERNATIONAL AIRPORT,US,OH,KCMH,39.991,-82.87700000000001,248.7,19450401,20181019,True
19470,724290,93815,J.M.COX DAYTON INTERNATIONAL AIRPORT,US,OH,KDAY,39.906,-84.219,305.7,19730101,20181019,True
19485,724320,93817,EVANSVILLE REGIONAL AIRPORT,US,IN,KEVV,38.044000000000004,-87.521,121.9,19730101,20181019,True
19503,724350,3816,BARKLEY REGIONAL AIRPORT,US,KY,KPAH,37.056,-88.774,125.9,19890101,20181019,True
19522,724380,93819,INDIANAPOLIS INTERNATIONAL AIRPORT,US,IN,KIND,39.725,-86.28200000000001,241.1,19421006,20181019,True
19536,724395,3958,ST LOUIS REGIONAL AIRPORT,US,IL,KALN,38.883,-90.05,165.5,20060101,20181019,True
19539,724397,54831,CENTRAL ILLINOIS REGIONAL AIRPORT,US,IL,KBMI,40.483000000000004,-88.95,263.7,20060101,20181019,True
19542,724400,13995,SPRINGFIELD-BRANSON REGIONAL AIRPORT,US,MO,KSGF,37.24,-93.39,384.7,19730101,20181019,True
19545,724450,3945,COLUMBIA REGIONAL AIRPORT,US,MO,KCOU,38.817,-92.21799999999999,272.2,19730101,20181019,True
19553,724457,3938,WAYNESVILLE REGIONAL AIRPORT AT FORNEY FIELD,US,MO,KTBN,37.75,-92.15,353.3,19630320,20181019,True
19559,724460,3947,KANSAS CITY INTERNATIONAL AIRPORT,US,MO,KMCI,39.297,-94.73100000000001,306.3,19730101,20181019,True
19592,724510,13985,DODGE CITY REGIONAL AIRPORT,US,KS,KDDC,37.769,-99.96799999999999,787.0,19430419,20181019,True
19599,724518,3968,HAYS REGIONAL AIRPORT,US,KS,KHYS,38.85,-99.26700000000001,609.0,20060101,20181019,True
19607,724555,3936,MANHATTAN REGIONAL AIRPORT,US,KS,KMHK,39.135,-96.679,321.9,20060101,20181019,True
19622,724620,23061,SAN LUIS VALLEY REGIONAL AIRPORT,US,CO,KALS,37.439,-105.861,2296.1,19730101,20181019,True
19626,724627,3011,TELLURIDE REGIONAL AIRPORT,US,CO,KTEX,37.95,-107.9,2770.9,20060101,20181020,True
19651,724675,23063,EAGLE CO REGIONAL AIRPORT,US,CO,KEGE,39.65,-106.917,1980.3,19730101,20181019,True
19705,724760,23066,GRAND JUNCTION REGIONAL AIRPORT,US,CO,KGJT,39.134,-108.54,1480.7,19730101,20181019,True
19706,724765,93013,MONTROSE REGIONAL AIRPORT,US,CO,KMTJ,38.506,-107.899,1743.5,20060101,20181019,True
19757,724880,23185,RENO/TAHOE INTERNATIONAL AIRPORT,US,NV,KRNO,39.484,-119.771,1344.2,19430105,20181019,True
19781,724940,23234,SAN FRANCISCO INTERNATIONAL AIRPORT,US,CA,KSFO,37.62,-122.365,2.4,19730101,20181019,True
19801,724975,93809,CAIRO REGIONAL AIRPORT,US,IL,KCIR,37.064,-89.219,97.8,20060101,20181019,True
19835,725038,14714,STEWART INTERNATIONAL AIRPORT,US,NY,KSWF,41.5,-74.1,149.7,19420802,20181019,True
19889,725080,14740,BRADLEY INTERNATIONAL AIRPORT,US,CT,KBDL,41.938,-72.682,53.3,19410912,20181019,True
19901,725090,14739,GEN E L LOGAN INTERNATIONAL AIRPORT,US,MA,KBOS,42.361000000000004,-71.01,3.7,19431121,20181019,True
19909,725100,94746,WORCESTER REGIONAL AIRPORT,US,MA,KORH,42.271,-71.873,304.8,20090101,20181019,True
19951,725140,14778,WILLIAMSPORT REGIONAL AIRPORT,US,PA,KIPT,41.243,-76.922,158.5,19730101,20181020,True
19959,725155,94761,ITHACA TOMPKINS REGIONAL AIRPORT,US,NY,KITH,42.483000000000004,-76.467,335.0,20060101,20181019,True
19968,725170,14737,LEHIGH VALLEY INTERNATIONAL AIRPORT,US,PA,KABE,40.65,-75.44800000000001,118.9,19730101,20181019,True
19973,725180,14735,ALBANY INTERNATIONAL AIRPORT,US,NY,KALB,42.747,-73.79899999999999,85.3,19460101,20181019,True
19988,725200,94823,PITTSBURGH INTERNATIONAL AIRPORT,US,PA,KPIT,40.485,-80.214,366.7,19450201,20181019,True
19999,725210,14895,AKRON-CANTON REGIONAL AIRPORT,US,OH,KCAK,40.918,-81.444,369.7,19730101,20181019,True
20027,725250,14852,YOUNGSTOWN-WARREN REGIONAL AIRPORT,US,OH,KYNG,41.255,-80.67399999999999,355.7,19480101,20181019,True
20041,725266,4751,BRADFORD REGIONAL AIRPORT,US,PA,KBFD,41.8,-78.633,652.9,19730101,20181019,True
20042,725267,94868,VENANGO REGIONAL AIRPORT,US,PA,KFKL,41.383,-79.867,469.4,19730101,20181019,True
20054,725292,14976,GRINNELL REGIONAL AIRPORT,US,IA,KGGI,41.717,-92.7,307.2,20060831,20181019,True
20060,725300,94846,CHICAGO O'HARE INTERNATIONAL AIRPORT,US,IL,KORD,41.995,-87.934,201.8,19461001,20181019,True
20076,725320,14842,GREATER PEORIA REGIONAL AIRPORT,US,IL,KPIA,40.668,-89.684,198.1,19730101,20181019,True
20084,725330,14827,FORT WAYNE INTERNATIONAL AIRPORT,US,IN,KFWA,40.971000000000004,-85.206,241.1,19411101,20181019,True
20097,725345,14834,JOLIET REGIONAL AIRPORT,US,IL,KJOT,41.5,-88.167,177.4,20020902,20181019,True
20101,725347,14880,WAUKEGAN REGIONAL AIRPORT,US,IL,KUGN,42.417,-87.867,221.6,20060101,20181019,True
20106,725350,14848,SOUTH BEND REGIONAL AIRPORT,US,IN,KSBN,41.707,-86.316,235.6,19730101,20181019,True
20163,725420,14931,SE IOWA REGIONAL AIRPORT,US,IA,KBRL,40.783,-91.125,210.9,20090101,20181019,True
20169,725440,14923,QUAD CITY INTERNATIONAL AIRPORT,US,IL,KMLI,41.465,-90.523,180.4,19730101,20181019,True
20182,725460,14933,DES MOINES INTERNATIONAL AIRPORT,US,IA,KDSM,41.534,-93.65299999999999,291.7,19730101,20181019,True
20192,725466,4938,ANKENY REGIONAL AIRPORT,US,IA,KIKV,41.691,-93.566,277.4,20060101,20181019,True
20200,725470,94908,DUBUQUE REGIONAL AIRPORT,US,IA,KDBQ,42.398,-90.704,321.9,19730101,20181019,True
20256,725520,14935,CENTRAL NEBRASKA REGIONAL AIRPORT,US,NE,KGRI,40.961000000000006,-98.314,560.8,19440301,20181019,True
20314,725645,24022,LARAMIE REGIONAL AIRPORT,US,WY,KLAR,41.317,-105.68299999999999,2214.7,19730101,20181019,True
20319,725650,3017,DENVER INTERNATIONAL AIRPORT,US,CO,KDEN,39.833,-104.65799999999999,1650.2,19940718,20181019,True
20344,725720,24127,SALT LAKE CITY INTERNATIONAL AIRPORT,US,UT,KSLC,40.778,-111.969,1287.8,19411101,20181019,True
20369,725780,24156,POCATELLO REGIONAL AIRPORT,US,ID,KPIH,42.92,-112.571,1357.0,19430101,20181019,True
20389,725825,24121,ELKO REGIONAL AIRPORT,US,NV,KEKO,40.829,-115.789,1533.1,19770101,20181019,True
20482,726064,64709,SANFORD REGIONAL AIRPORT,US,ME,KSFM,43.394,-70.708,74.4,20060101,20181019,True
20542,726170,14742,BURLINGTON INTERNATIONAL AIRPORT,US,VT,KBTV,44.468,-73.15,100.6,19480101,20181019,True
20563,726225,64776,PLATTSBURGH INTERNATIONAL AIRPORT,US,NY,KPBG,44.65,-73.467,71.3,20070618,20181019,True
20594,726350,94860,GERALD R FORD INTERNATIONAL AIRPORT,US,MI,KGRR,42.883,-85.524,244.8,19730101,20181019,True
20608,726370,14826,BISHOP INTERNATIONAL AIRPORT,US,MI,KFNT,42.967,-83.749,234.7,19730101,20181019,True
20614,726379,14845,MBS INTERNATIONAL AIRPORT,US,MI,KMBS,43.533,-84.08,201.2,19730101,20181019,True
20625,726390,94849,ALPENA COUNTY REGIONAL AIRPORT,US,MI,KAPN,45.071999999999996,-83.564,208.5,19730101,20181019,True
20682,726440,14925,ROCHESTER INTERNATIONAL AIRPORT,US,MN,KRST,43.903999999999996,-92.492,397.5,19730101,20181019,True
20693,726456,94855,WHITTMAN REGIONAL AIRPORT,US,WI,KOSH,43.983999999999995,-88.557,238.4,20060101,20181019,True
20731,726505,4845,KENOSHA REGIONAL AIRPORT,US,WI,KENW,42.595,-87.93799999999999,226.5,20060101,20181019,True
20751,726518,94990,WINNER REGIONAL AIRPORT,US,SD,KICR,43.391000000000005,-99.84200000000001,619.4,20060101,20181019,True
20762,726540,14936,HURON REGIONAL AIRPORT,US,SD,KHON,44.398,-98.223,390.1,19730101,20181019,True
20764,726544,4958,ORR REGIONAL AIRPORT,US,MN,KORB,48.016000000000005,-92.85600000000001,399.6,20060101,20181019,True
20775,726550,14926,ST CLOUD REGIONAL AIRPORT,US,MN,KSTC,45.543,-94.051,307.5,19730101,20181019,True
20789,726560,24025,PIERRE REGIONAL AIRPORT,US,SD,KPIR,44.381,-100.286,531.0,20100801,20181019,True
20798,726564,4967,RED WING REGIONAL AIRPORT,US,MN,KRGK,44.589,-92.485,237.7,20060101,20181019,True
20839,726590,14929,ABERDEEN REGIONAL AIRPORT,US,SD,KABR,45.443000000000005,-98.413,395.3,19730101,20181019,True
20879,726679,4969,RUSH CITY REGIONAL AIRPORT,US,MN,KROS,45.698,-92.95299999999999,281.3,20060101,20181019,True
20897,726720,24061,RIVERTON REGIONAL AIRPORT,US,WY,KRIW,43.06399999999999,-108.459,1659.6,20070401,20181019,True
20907,726770,24033,BILLINGS LOGAN INTERNATIONAL AIRPORT,US,MT,KBIL,45.806999999999995,-108.542,1091.5,19350501,20181019,True
20956,726876,387,GRANT COUNTY REGIONAL AIRPORT OGILVIE FIELD,US,OR,KGCD,44.4,-118.96700000000001,1127.2,20090101,20181019,True
20969,726904,24231,ROSEBURG REGIONAL AIRPORT,US,OR,KRBG,43.239,-123.355,160.0,19800514,20181019,True
20994,726980,24229,PORTLAND INTERNATIONAL AIRPORT,US,OR,KPDX,45.596000000000004,-122.609,5.8,19360501,20181019,True
21007,727033,14609,INTERNATIONAL AIRPORT,US,ME,KHUL,46.119,-67.793,145.1,20000101,20181019,True
21086,727450,14913,DULUTH INTERNATIONAL AIRPORT,US,MN,KDLH,46.836999999999996,-92.18299999999999,436.8,19480101,20181019,True
21109,727470,14918,FALLS INTERNATIONAL AIRPORT,US,MN,KINL,48.56100000000001,-93.398,360.6,19730101,20181019,True
21139,727508,54915,PINE RIVER REGIONAL AIRPORT,US,MN,KPWC,46.725,-94.382,394.7,20060101,20181019,True
21148,727530,14914,HECTOR INTERNATIONAL AIRPORT,US,ND,KFAR,46.925,-96.811,274.3,19480101,20181019,True
21152,727535,14919,JAMESTOWN REGIONAL AIRPORT,US,ND,KJMS,46.926,-98.669,455.4,19730101,20181019,True
21164,727570,14916,GRAND FORKS INTERNATIONAL AIRPORT,US,ND,KGFK,47.943000000000005,-97.184,256.6,20100801,20181019,True
21180,727670,94014,SLOULIN FIELD INTERNATIONAL AIRPORT,US,ND,KISN,48.174,-103.637,579.7,19730101,20181019,True
21196,727720,24144,HELENA REGIONAL AIRPORT,US,MT,KHLN,46.606,-111.964,1166.8,19730101,20181019,True
21198,727730,24153,MISSOULA INTERNATIONAL AIRPORT,US,MT,KMSO,46.92100000000001,-114.09299999999999,972.9,19730101,20181019,True
21202,727750,24143,GREAT FALLS INTERNATIONAL AIRPORT,US,MT,KGTF,47.473,-111.382,1116.8,19730101,20181019,True
21207,727790,24146,GLACIER PARK INTERNATIONAL AIRPORT,US,MT,KGPI,48.303999999999995,-114.264,901.3,19730101,20181019,True
21229,727850,24157,SPOKANE INTERNATIONAL AIRPORT,US,WA,KGEG,47.622,-117.52799999999999,717.2,19410811,20181019,True
21252,727910,94224,ASTORIA REGIONAL AIRPORT,US,OR,KAST,46.157,-123.883,2.7,19730101,20181019,True
21270,727930,24233,SEATTLE-TACOMA INTERNATIONAL AIRPORT,US,WA,KSEA,47.443999999999996,-122.314,112.8,19480101,20181019,True
21681,744860,94789,JOHN F KENNEDY INTERNATIONAL AIRPORT,US,NY,KJFK,40.639,-73.762,3.4,19730101,20181019,True
21837,747560,12816,GAINESVILLE REGIONAL AIRPORT,US,FL,KGNV,29.691999999999997,-82.27600000000001,37.5,20090101,20181019,True
21841,747680,13939,MID DELTA REGIONAL AIRPORT,US,MS,KGLH,33.483000000000004,-90.985,39.0,20090101,20181019,True
21876,747870,12834,DAYTONA BEACH INTERNATIONAL AIRPORT,US,FL,KDAB,29.183000000000003,-81.048,9.5,20090101,20181019,True
21886,747917,390,MT PLEASANT REGIONAL AIRPORT FASION FIELD,US,SC,KLRO,32.9,-79.783,4.3,20090101,20181019,True
28464,999999,440,CULLMAN REGIONAL AIRPORT FOLSOM FIELD,US,AL,,34.269,-85.85799999999999,295.7,20140731,20181019,True
